{
  "type": "FeatureCollection",
  "features": [
    {
      "type": "Feature",
      "properties": {
        "name": "EHBO",
        "icon": "first_aid"
      },
      "geometry": {
        "type": "Point",
        "coordinates": [
          3.8812690973281865,
          51.15098861759783
        ]
      }
    },
    {
      "type": "Feature",
      "properties": {
        "label": "Infopunt",
        "icon": "info"
      },
      "geometry": {
        "type": "Point",
        "coordinates": [
          3.881497085094452,
          51.151013854639146
        ]
      }
    },
    {
      "type": "Feature",
      "properties": {
        "label": "Toiletten",
        "icon": "toilet"
      },
      "geometry": {
        "type": "Point",
        "coordinates": [
          3.8825538754463196,
          51.15171039153202
        ]
      }
    },
    {
      "type": "Feature",
      "properties": {
        "label": "Fietsenstalling",
        "icon": "bikes"
      },
      "geometry": {
        "type": "Point",
        "coordinates": [
          3.880110383033752,
          51.151419327877235
        ]
      }
    },
    {
      "type": "Feature",
      "properties": {
        "label": "Toiletten",
        "icon": "toilet"
      },
      "geometry": {
        "type": "Point",
        "coordinates": [
          3.881094753742218,
          51.15118883107928
        ]
      }
    },
    {
      "type": "Feature",
      "properties": {
        "label": "Drinkbaar water",
        "icon": "water"
      },
      "geometry": {
        "type": "Point",
        "coordinates": [
          3.8796222209930415,
          51.15080522801649
        ]
      }
    },
    {
      "type": "Feature",
      "properties": {
        "label": "Camping"
      },
      "geometry": {
        "type": "Point",
        "coordinates": [
          3.8791930675506596,
          51.15100544229356
        ]
      }
    },
    {
      "type": "Feature",
      "properties": {
        "label": "Camping"
      },
      "geometry": {
        "type": "Point",
        "coordinates": [
          3.8791447877883907,
          51.15053434849424
        ]
      }
    },
    {
      "type": "Feature",
      "properties": {
        "label": "Fuiftent",
        "icon": "party_tent"
      },
      "geometry": {
        "type": "Point",
        "coordinates": [
          3.883734047412872,
          51.15139409105769
        ]
      }
    },
    {
      "type": "Feature",
      "properties": {
        "label": "Kampvuur",
        "icon": "bonfire"
      },
      "geometry": {
        "type": "Point",
        "coordinates": [
          3.8834095001220703,
          51.150869162081705
        ]
      }
    },
    {
      "type": "Feature",
      "properties": {
        "label": "Stille bar",
        "icon": "silent_bar"
      },
      "geometry": {
        "type": "Point",
        "coordinates": [
          3.8824626803398132,
          51.15073119898816
        ]
      }
    },
    {
      "type": "Feature",
      "properties": {
        "label": "In- en uitgang",
        "icon": "entrance"
      },
      "geometry": {
        "type": "Point",
        "coordinates": [
          3.8782167434692383,
          51.15058145809059
        ]
      }
    },
    {
      "type": "Feature",
      "properties": {
        "label": "Podiumgrond"
      },
      "geometry": {
        "type": "Point",
        "coordinates": [
          3.882256150245667,
          51.15139913842271
        ]
      }
    },
    {
      "type": "Feature",
      "properties": {
        "label": "Geen doorgang",
        "icon": "no_access"
      },
      "geometry": {
        "type": "Point",
        "coordinates": [
          3.8799709081649776,
          51.15040984432957
        ]
      }
    },
    {
      "type": "Feature",
      "properties": {
        "label": "Geen doorgang",
        "icon": "no_access"
      },
      "geometry": {
        "type": "Point",
        "coordinates": [
          3.8802123069763184,
          51.15166160064282
        ]
      }
    },
    {
      "type": "Feature",
      "properties": {
        "label": "Geen doorgang",
        "icon": "no_access"
      },
      "geometry": {
        "type": "Point",
        "coordinates": [
          3.884460926055908,
          51.15129482610018
        ]
      }
    },
    {
      "type": "Feature",
      "properties": {
        "label": "Drinkbaar water",
        "icon": "water"
      },
      "geometry": {
        "type": "Point",
        "coordinates": [
          3.8824760913848873,
          51.15113835717425
        ]
      }
    },
    {
      "type": "Feature",
      "properties": {
        "label": "Markt"
      },
      "geometry": {
        "type": "Point",
        "coordinates": [
          3.882771134376526,
          51.15145129449553
        ]
      }
    },
    {
      "type": "Feature",
      "properties": {
        "icon": "boat",
        "label": "Vaarzone"
      },
      "geometry": {
        "type": "Point",
        "coordinates": [
          3.884611129760742,
          51.152432154177184
        ]
      }
    },
    {
      "type": "Feature",
      "properties": {
        "icon": "boat",
        "label": "Vaarzone"
      },
      "geometry": {
        "type": "Point",
        "coordinates": [
          3.878152370452881,
          51.15157074850479
        ]
      }
    },
    {
      "type": "Feature",
      "properties": {
        "label": "Medewerkerszone"
      },
      "geometry": {
        "type": "Point",
        "coordinates": [
          3.8812945783138275,
          51.15130071470529
        ]
      }
    }
  ]
}